[
  {
    "city": "Краснодар",
    "coordinates": [38.975313, 45.035470],
    "id": "krd",
    "markers": [
      {
        "coordinates": [38.984864, 45.101942],
        "color": "#f28109",
        "title": "ЭЛЬБА мебель",
        "subtitle": "ТЦ «Красная площадь»",
        "address": "ул. Дзержинского, д. 100, 3-й эт, С-45",
        "phone": "8(861) 217-92-97",
        "popup": {
          "content": "ул. Дзержинского, д. 100, 3-й эт, С-45, 8(861) 217-92-97",
          "position": "top"
        }
      },
      {
        "coordinates": [39.123979, 45.012456],
        "color": "#f28109",
        "title": "ЭЛЬБА мебель",
        "subtitle": "МЦ «OZ Mall»",
        "address": "ул. Крылатая д. 2, 2-й эт",
        "phone": "8(861) 217-92-97",
        "popup": {
          "content": "ул. Крылатая д. 2, 2-й эт, 8(861) 217-92-97",
          "position": "top"
        }
      },
      {
        "coordinates": [38.968216, 45.042247],
        "color": "#f28109",
        "title": "Blammo Home",
        "subtitle": "магазин-салон",
        "address": "ул. Аэродромная 4",
        "phone": "7 (938) 516-62-67",
        "popup": {
          "content": "ул. Аэродромная 4, 7 (938) 516-62-67",
          "position": "top"
        }
      }
    ]
  },
  {
  "city": "Санкт-Петербург",
  "coordinates": [30.314997, 59.938784],
  "id": "spb",
  "markers": [
    {
      "coordinates": [30.310086, 59.881521],
      "color": "#f28109",
      "title": "EUROSTORIES салон мебели",
      "subtitle": "МЦ Мебельный Континент",
      "address": "ул. Варшавская д.3, корпус 3, 2 эт, секции 215-217",
      "phone": "7 (911)155-71-94",
      "popup": {
        "content": "ул. Варшавская д.3, корпус 3, 2 эт, секции 215-217, 7(911)155-71-94",
        "position": "top"
      }
    },
    {
      "coordinates": [30.311913, 59.881465],
      "color": "#f28109",
      "title": "ЭЛЬБА мебель",
      "subtitle": "МЦ Мебельный Континент",
      "address": "ул. Варшавская д.3, корпус 1, 1 эт, секции 109-111",
      "phone": "8 (812)409-37-25",
      "popup": {
        "content": "ул. Варшавская д.3, корпус 1, 1 эт, секции 109-111, 8(812)409-37-25",
        "position": "top"
      }
    },
    {
      "coordinates": [30.311915, 59.881491],
      "color": "#f28109",
      "title": "SLEEPSYSTEM новейшие спальные системы",
      "subtitle": "МЦ Мебельный Континент",
      "address": "ул. Варшавская д.3, корпус 1, 2 эт, секции 211-212",
      "phone": "7 (812) 425-37-57, 7 (931)251-68-68",
      "popup": {
        "content": "ул. Варшавская д.3, корпус 1, 2 эт, секции 211-212, 7(812) 425-37-57, 7(931)251-68-68",
        "position": "top"
      }
    },
    {
      "coordinates": [30.311449, 59.881381],
      "color": "#f28109",
      "title": "Costa Bella",
      "subtitle": "МЦ Мебельный Континент",
      "address": "ул. Варшавская д.3, корпус 2, 3 эт, секции 307-310",
      "phone": "8 (812) 987-80-40",
      "popup": {
        "content": "ул. Варшавская д.3, корпус 2, 3 эт, секции 307-310, 8(812) 987-80-40",
        "position": "top"
      }
    },
    {
      "coordinates": [30.310580, 59.881521],
      "color": "#f28109",
      "title": "Miassmobili интерьеры Италии",
      "subtitle": "МЦ Мебельный Континент",
      "address": "Варшавская д.3, корпус 4, 3 эт, секции 323, 324",
      "phone": "8 (921) 356-70-99",
      "popup": {
        "content": "Варшавская д.3, корпус 4, 3 эт, секции 323, 324, 8(921) 356-70-99",
        "position": "top"
      }
    },
    {
      "coordinates": [30.439722, 59.934906],
      "color": "#f28109",
      "title": "ЭЛЬБА мебель",
      "subtitle": "МЦ Мебель Холл",
      "address": "площадь Карла Фаберже, д. 8 Е, 3 этаж, секции 302,305,309",
      "phone": "8 (812) 409-37-82",
      "popup": {
        "content": "площадь Карла Фаберже, д. 8 Е, 3 этаж, секции 302,305,309, 8(812) 409-37-82",
        "position": "top"
      }
    },
    {
      "coordinates": [30.447299, 59.910172],
      "color": "#f28109",
      "title": "ЭЛЬБА мебель",
      "subtitle": "МЦ Мебель Вуд",
      "address": "Дальневосточный просп., 14, 2 этаж, секции 208, 210",
      "phone": "8 (812) 409-37-81",
      "popup": {
        "content": "Дальневосточный просп., 14, 2 этаж, секции 208, 210, 8(812) 409-37-81",
        "position": "top"
      }
    },
    {
      "coordinates": [30.382768, 59.825012],
      "color": "#f28109",
      "title": "ЭЛЬБА мебель",
      "subtitle": "МЦ 12стульев",
      "address": "Балканская площадь, д.5, 1 этаж, секция А13",
      "phone": "8 (812) 409-37-18",
      "popup": {
        "content": "Балканская площадь, д.5, 1 этаж, секция А13, 8(812) 409-37-18",
        "position": "top"
      }
    },
    {
      "coordinates": [30.381131, 59.825239],
      "color": "#f28109",
      "title": "ЭЛЬБА мебель",
      "subtitle": "МЦ 12стульев",
      "address": "Балканская площадь, д.5, 2 этаж, секция Д04",
      "phone": "8 (812) 409-36-02",
      "popup": {
        "content": "Балканская площадь, д.5, 2 этаж, секция Д04, 8(812) 409-36-02",
        "position": "top"
      }
    },
    {
      "coordinates": [30.330563, 60.058745],
      "color": "#f28109",
      "title": "SLEEPSYSTEM новейшие спальные системы",
      "subtitle": "МЦ Гранд Каньон",
      "address": "ул. Шостаковича, д.8, к.1, лит.А, 1 этаж, сек.120-122",
      "phone": "7 (812) 425 37 57, 7 (911)839-48-16, 7 (911)033-14-79",
      "popup": {
        "content": "ул. Шостаковича, д.8, к.1, лит.А, 1 этаж, сек.120-122, 7(812) 425 37 57, 7(911)839-48-16, 7(911)033-14-79",
        "position": "top"
      }
    },
    {
      "coordinates": [30.329444, 60.059069],
      "color": "#f28109",
      "title": "ЭЛЬБА мебель",
      "subtitle": "МЦ Гранд Каньон",
      "address": "ул. Шостаковича, д.8, к.1, лит.А, 3 этаж, сек.325А",
      "phone": "7 (812) 425 37 57, 7 (911)839-48-16, 7 (911)033-14-79",
      "popup": {
        "content": "ул. Шостаковича, д.8, к.1, лит.А, 3 этаж, сек.325А, 7(812) 425 37 57, 7(911)839-48-16, 7(911)033-14-79",
        "position": "top"
      }
    },
    {
      "coordinates": [30.329673, 60.058855],
      "color": "#f28109",
      "title": "ЭЛЬБА мебель",
      "subtitle": "МЦ Гранд Каньон",
      "address": "ул. Шостаковича, д.8, к.1, лит.А, 3 этаж, сек.527А",
      "phone": "8 (812) 409-37-45",
      "popup": {
        "content": "ул. Шостаковича, д.8, к.1, лит.А, 3 этаж, сек.527А, 8(812) 409-37-45",
        "position": "top"
      }
    },
    {
      "coordinates": [30.330263, 60.058922],
      "color": "#f28109",
      "title": "VEGAS салон матрасов",
      "subtitle": "МЦ Гранд Каньон",
      "address": "ул. Шостаковича, д.8, к.1, лит.А, 4 этаж, сек.425",
      "phone": "8 (812) 409-37-45",
      "popup": {
        "content": "ул. Шостаковича, д.8, к.1, лит.А, 4 этаж, сек.425, 8 (812) 409-37-45",
        "position": "top"
      }
    },
    {
      "coordinates": [30.258749, 59.999659],
      "color": "#f28109",
      "title": "ЭЛЬБА мебель",
      "subtitle": "МЦ Богатырь",
      "address": "Богатырский пр., д.18, кор. 2, 1эт-70 и 71, сек.425",
      "phone": "8 (812) 409-52-16",
      "popup": {
        "content": "Богатырский пр., д.18, кор. 2, 1эт-70 и 71, сек.425, 8 (812) 409-52-16",
        "position": "top"
      }
    },
    {
      "coordinates": [30.258566, 59.999486],
      "color": "#f28109",
      "title": "Costa Bella",
      "subtitle": "МЦ Богатырь",
      "address": "Богатырский пр., д.18, кор. 2, 2 эт-№107-109",
      "phone": "8 (812) 987-80-40",
      "popup": {
        "content": "Богатырский пр., д.18, кор. 2, 2 эт-№107-109, 8(812) 987-80-40",
        "position": "top"
      }
    },
    {
      "coordinates": [30.257957, 59.998218],
      "color": "#f28109",
      "title": "ЕВРОДОМ",
      "subtitle": "МЦ Богатырь",
      "address": "Богатырский пр., д.18, кор. 2, 3 этаж, №310,344",
      "phone": "7 (812) 455-99-36, 7 (812) 455-99-38",
      "popup": {
        "content": "Богатырский пр., д.18, кор. 2, 3 этаж, №310,344, 7 (812) 455-99-36, 7 (812) 455-99-38",
        "position": "top"
      }
    },
    {
      "coordinates": [30.250983, 59.991224],
      "color": "#f28109",
      "title": "ЭЛЬБА мебель",
      "subtitle": "МЦ Мебель Сити 1",
      "address": "Мебельная ул., 1Д, 1этаж-85,86 2-53, №310,344",
      "phone": "8 (812) 409-37-64",
      "popup": {
        "content": "Мебельная ул., 1Д, 1этаж-85,86 2-53, №310,344, 8(812) 409-37-64",
        "position": "top"
      }
    },
    {
      "coordinates": [30.354583, 59.985456],
      "color": "#f28109",
      "title": "ЭЛЬБА мебель",
      "subtitle": "МЦ Мебель Сити 2",
      "address": "ул. Кантемировская, д.37, лит. А, 2 этаж, секция 40",
      "phone": "8 (812) 409-34-11",
      "popup": {
        "content": "ул. Кантемировская, д.37, лит. А, 2 этаж, секция 40, 8(812) 409-34-11",
        "position": "top"
      }
    },
    {
      "coordinates": [30.353181, 59.985521],
      "color": "#f28109",
      "title": "ЕВРОДОМ",
      "subtitle": "МЦ Мебель Сити 2",
      "address": "ул. Кантемировская, д.37, лит. А, 1 этаж, секция 16",
      "phone": "7 (812) 455-99-38",
      "popup": {
        "content": "ул. Кантемировская, д.37, лит. А, 1 этаж, секция 16, 7 (812) 455-99-36, 7 (812) 455-99-38",
        "position": "top"
      }
    },
    {
      "coordinates": [30.356227, 59.981077],
      "color": "#f28109",
      "title": "ЭЛЬБА мебель",
      "subtitle": "МЦ Аквилон",
      "address": "ул. Новолитовская, 15, корпус В, 1 этаж, секция 13-15",
      "phone": "8 (812) 409-37-15",
      "popup": {
        "content": "ул. Новолитовская, 15, корпус В, 1 этаж, секция 13-15, 8(812) 409-37-15",
        "position": "top"
      }
    },
    {
      "coordinates": [30.355818, 59.980931],
      "color": "#f28109",
      "title": "Arte del sonno",
      "subtitle": "МЦ Аквилон",
      "address": "ул. Новолитовская, 15, корпус В, 3 этаж, секция 80, 1 этаж, секция 13-15",
      "phone": "7 (921)886-48-33",
      "popup": {
        "content": "ул. Новолитовская, 15, корпус В, 3 этаж, секция 80, 1 этаж, секция 13-15, 7(921)886-48-33",
        "position": "top"
      }
    },
    {
      "coordinates": [30.368774, 59.876322],
      "color": "#f28109",
      "title": "ЭЛЬБА мебель",
      "subtitle": "МЦ Кубатура",
      "address": "ул. Фучика, д.9 стр.А,1 этаж, секция 109",
      "phone": "8 (812) 409-34-48",
      "popup": {
        "content": "ул. Фучика, д.9 стр.А,1 этаж, секция 109, 8(812) 409-34-48",
        "position": "top"
      }
    },
    {
      "coordinates": [30.367378, 59.875460],
      "color": "#f28109",
      "title": "VEGAS салон матрасов",
      "subtitle": "МЦ Кубатура",
      "address": "ул. Фучика, д.9 стр.А, 1 этаж, секция 210-211",
      "phone": "7 (812) 965-02-55",
      "popup": {
        "content": "ул. Фучика, д.9 стр.А, 1 этаж, секция 210-211, 7 (812) 965-02-55",
        "position": "top"
      }
    },
    {
      "coordinates": [30.265576, 60.002635],
      "color": "#f28109",
      "title": "VEGAS салон матрасов",
      "subtitle": "МЦ Круиз",
      "address": "Комендантский пр. д.4 к. 2А 1 этаж, секция 114, 115",
      "phone": "7 (812) 965-02-55",
      "popup": {
        "content": "Комендантский пр. д.4 к. 2А 1 этаж, секция 114, 115, 7 (812) 965-02-55",
        "position": "top"
      }
    },
    {
      "coordinates": [30.266326, 60.001919],
      "color": "#f28109",
      "title": "ЭЛЬБА мебель",
      "subtitle": "МЦ Круиз",
      "address": "Комендантский пр. д.4 к. 2А 2 этаж, секция 235",
      "phone": "7 (812) 409-52-95",
      "popup": {
        "content": "Комендантский пр. д.4 к. 2А 2 этаж, секция 235, 7(812) 409-52-95",
        "position": "top"
      }
    },
    {
      "coordinates": [30.268792, 59.997347],
      "color": "#f28109",
      "title": "Grand Manar мебель для спален",
      "subtitle": "ТЦ ИНТЕРИО",
      "address": "ул.Полевая Сабировская улица, 54",
      "phone": "7 (962) 690-55-31",
      "popup": {
        "content": "ул.Полевая Сабировская улица, 54, 7 (962) 690-55-31",
        "position": "top"
      }
    },
    {
      "coordinates": [30.224561, 59.855769],
      "color": "#f28109",
      "title": "ЭЛЬБА мебель",
      "subtitle": "ТЦ «Юго-Запад»",
      "address": "ул. Маршала Жукова, д. 35, к. 1, 2 этаж, секция 50",
      "phone": "7 (812) 409-36-83",
      "popup": {
        "content": "ул. Маршала Жукова, д. 35, к. 1, 2 этаж, секция 50, 7(812) 409-36-83",
        "position": "top"
      }
    },
    {
      "coordinates": [30.147831, 59.994074],
      "color": "#f28109",
      "title": "«Dom Decora» Салон элитной мебели",
      "subtitle": "МЦ Гарден Сити",
      "address": "Лахтинский пр.д.85, 2 этаж, секция 50",
      "phone": "7 (931)370-07-84",
      "popup": {
        "content": "Лахтинский пр.д.85, 2 этаж, секция 50, 7(931)370-07-84",
        "position": "top"
      }
    },
    {
      "coordinates": [30.145865, 59.994026],
      "color": "#f28109",
      "title": "«Toriani» Салон элитной мебели ",
      "subtitle": "МЦ Гарден Сити",
      "address": "Лахтинский пр.д.85, 2 этаж, секция 50",
      "phone": "7 (812) 407-37-32",
      "popup": {
        "content": "Лахтинский пр.д.85, 2 этаж, секция 50, 7(812) 407-37-32",
        "position": "top"
      }
    },
    {
      "coordinates": [30.613740, 59.730230],
      "color": "#f28109",
      "title": "ЭЛЬБА мебель",
      "subtitle": "МЦ «Мебель Молл» (Колпино)",
      "address": "Колпино, ул. Оборонная, д. 1, 2 -11",
      "phone": "7 (812) 409-37-65",
      "popup": {
        "content": "Колпино, ул. Оборонная, д. 1, 2 -11, 7(812) 409-37-65",
        "position": "top"
      }
    },
    {
      "coordinates": [30.264989, 59.945813],
      "color": "#f28109",
      "title": "BLOMER салон элитной мебели",
      "subtitle": "магазин-салон",
      "address": "13-я линия ВО, д. 70",
      "phone": "8 (800) 555-77-17",
      "popup": {
        "content": "13-я линия ВО, д. 70, 8 (800) 555-77-17",
        "position": "top"
      }
    },

    {
      "coordinates": [30.326279, 59.981093],
      "color": "#f28109",
      "title": "GEDONI салон элитной мебели",
      "subtitle": "магазин-салон",
      "address": "ул.Кантемировская 4",
      "phone": "7 (812)309-89-22, 7 (911)929-14-14",
      "popup": {
        "content": "ул.Кантемировская 4, 7(812)309-89-22, 7(911)929-14-14",
        "position": "top"
      }
    }
  ]
},

{
  "city": "Москва",
  "coordinates": [37.617698, 55.755864],
  "id": "msk",
  "markers": [
    {
    "coordinates": [37.436625, 55.886645],
    "color": "#f28109",
    "title": "EUROSTYLE",
    "subtitle": "МЦ Гранд",
    "address": "ул. Бутаково, 4, Химки (здание Гранд-2, вход 3, этаж 4)",
    "phone": "7 (966) 195-57-96",
    "popup": {
      "content": "ул. Бутаково, 4, Химки (здание Гранд-2, вход 3, этаж 4), 7(966) 195-57-96",
      "position": "top"
    }
  },
  {
    "coordinates": [37.539309, 55.905453],
    "color": "#f28109",
    "title": "ЭЛЬБА мебель",
    "subtitle": "МЦ «Империя»",
    "address": "Дмитровское шоссе, 161 Б м.Алтуфьево",
    "phone": "7 (499) 380-64-39",
    "popup": {
      "content": "Дмитровское шоссе, 161 Б м.Алтуфьево, 7(499) 380-64-39",
      "position": "top"
    }
  },
  {
    "coordinates": [37.539619, 55.905358],
    "color": "#f28109",
    "title": "ИВНА",
    "subtitle": "МЦ «Империя»",
    "address": "Дмитровское шоссе, 161 В м.Селигерская",
    "phone": "7 (911)058-80-01",
    "popup": {
      "content": "Дмитровское шоссе, 161 В м.Селигерская, 7(911)058-80-01",
      "position": "top"
    }
  },
  {
    "coordinates": [37.439399, 55.633966],
    "color": "#f28109",
    "title": "EUROSTYLE",
    "subtitle": "ТЦ Румянцево",
    "address": "Киевское шоссе, 22-й км (кор. А, вход 1, этаж 3)",
    "phone": "7 (911)155-71-94",
    "popup": {
      "content": "Киевское шоссе, 22-й км (кор. А, вход 1, этаж 3), 7(911)155-71-94",
      "position": "top"
    }
  },
  {
    "coordinates": [37.755965, 55.917097],
    "color": "#f28109",
    "title": "ЭЛЬБА мебель",
    "subtitle": "МЦ»Красный кит»",
    "address": "г. Мытищи, Шараповский пр-д, вл. 2, стр. 4",
    "phone": "7 (499) 380-60-58",
    "popup": {
      "content": "г. Мытищи, Шараповский пр-д, вл. 2, стр. 4, 7(499) 380-60-58",
      "position": "top"
    }
  },
  {
    "coordinates": [37.734216, 55.730458],
    "color": "#f28109",
    "title": "ЭЛЬБА мебель",
    "subtitle": "Меб. Строй Центр «Декоратор»",
    "address": "Рязанский пр., д. 2, корп. 3, 3 эт- 128",
    "phone": "7 (499) 350-16-94",
    "popup": {
      "content": "Рязанский пр., д. 2, корп. 3, 3 эт- 128, 7(499) 350-16-94",
      "position": "top"
    }
  },
  {
    "coordinates": [37.655689, 55.710807],
    "color": "#f28109",
    "title": "EUROSTYLE",
    "subtitle": "МЦ Roomer",
    "address": "Ленинская Слобода, 26, 1 эт, B105",
    "phone": "8 (968) 945-44-75",
    "popup": {
      "content": "Ленинская Слобода, 26, 1 эт, B105, 8(968) 945-44-75",
      "position": "top"
    }
  },
  {
    "coordinates": [37.656199, 55.710997],
    "color": "#f28109",
    "title": "ЭЛЬБА мебель",
    "subtitle": "МЦ Roomer",
    "address": "ул. Ленинская Слобода, 26, 1 эт,В110",
    "phone": "7 (499) 350-26-87",
    "popup": {
      "content": "ул. Ленинская Слобода, 26, 1 эт,В110, 7(499) 350-26-87",
      "position": "top"
    }
  },
  {
    "coordinates": [37.716276, 55.616138],
    "color": "#f28109",
    "title": "ЭЛЬБА мебель",
    "subtitle": "МЦ «Москва»",
    "address": "Каширское ш. 61, корпус 3А, 2 эт- 2М-02",
    "phone": "7 (499) 380-61-25",
    "popup": {
      "content": "Каширское ш. 61, корпус 3А, 2 эт- 2М-02, 7(499) 380-61-25",
      "position": "top"
    }
  },
  {
    "coordinates": [37.441511, 55.634322],
    "color": "#f28109",
    "title": "ЭЛЬБА мебель",
    "subtitle": "МЦ «Мебель Park»",
    "address": "(Румянцево)пос. Московский, Киевское шоссе, 22-й километр, д.е 4, кор А, 2 и 3 этаж",
    "phone": "7 (499) 380-86-73",
    "popup": {
      "content": "(Румянцево)пос. Московский, Киевское шоссе, 22-й километр, д.е 4, кор А, 2 и 3 этаж, 7(499) 380-86-73",
      "position": "top"
    }
  },
  {
    "coordinates": [37.607429, 55.614415],
    "color": "#f28109",
    "title": "ЭЛЬБА мебель",
    "subtitle": "ТЦ «Армада»",
    "address": "ул. Кировоградская, д. 11. к .1, 2 этаж",
    "phone": "7 (499) 380-64-37",
    "popup": {
      "content": "ул. Кировоградская, д. 11. к .1, 2 этаж, 7(499) 380-64-37",
      "position": "top"
    }
  },
  {
    "coordinates": [37.605361, 55.609445],
    "color": "#f28109",
    "title": "ЭЛЬБА мебель",
    "subtitle": "ТЦ «Гранд Юг»",
    "address": "ул. Кировоградская д.15, 1 этаж",
    "phone": "7 (499) 380-79-78",
    "popup": {
      "content": "ул. Кировоградская д.15, 1 этаж, 7(499) 380-79-78",
      "position": "top"
    }
  },
  {
    "coordinates": [37.844803, 55.763751],
    "color": "#f28109",
    "title": "ЭЛЬБА мебель",
    "subtitle": "ТЦ «Шоколад»",
    "address": "г. Реутов, 2 км Мкад, д.2, 3эт-390",
    "phone": "7 (499) 380-63-85",
    "popup": {
      "content": "г. Реутов, 2 км Мкад, д.2, 3эт-390, 7(499) 380-63-85",
      "position": "top"
    }
  },
  {
    "coordinates": [38.209130, 55.575582],
    "color": "#f28109",
    "title": "ЭЛЬБА мебель",
    "subtitle": "ТЦ «Мебель ХОЛ»",
    "address": "г. Раменское, ул. Чугунова, 15б, 3 этаж",
    "phone": "7 (499) 380-64-86",
    "popup": {
      "content": "г. Раменское, ул. Чугунова, 15б, 3 этаж, 7(499) 380-64-86",
      "position": "top"
    }
  },
  {
    "coordinates": [38.757703, 55.068323],
    "color": "#f28109",
    "title": "ЭЛЬБА мебель",
    "subtitle": "МЦ «Большая медведица»",
    "address": "г.Коломна, ул. Астахова, 5, 3 этаж",
    "phone": "7 (499) 380-64-51",
    "popup": {
      "content": "г.Коломна, ул. Астахова, 5, 3 этаж, 7(499) 380-64-51",
      "position": "top"
    }
  },
  {
    "coordinates": [37.545261, 55.401665],
    "color": "#f28109",
    "title": "ЭЛЬБА мебель",
    "subtitle": "ТЦ «Вагант»",
    "address": "г. Подольск, ул. Станционная, д.11, 1 этаж",
    "phone": "7 (499) 380-73-36",
    "popup": {
      "content": "г. Подольск, ул. Станционная, д.11, 1 этаж, 7(499) 380-73-36",
      "position": "top"
    }
  },
  {
    "coordinates": [37.539704, 55.904867],
    "color": "#f28109",
    "title": "Шлафкомфорт",
    "subtitle": "МЦ Империя",
    "address": "Москва, Дмитровское шоссе, 161Б, 3 этаж",
    "phone": "8 (925)-076-21-30",
    "popup": {
      "content": "Москва, Дмитровское шоссе, 161Б, 3 этаж, 8(925)-076-21-30",
      "position": "top"
    }
  },
  {
    "coordinates": [37.435891, 55.886674],
    "color": "#f28109",
    "title": "Шлафкомфорт",
    "subtitle": "МТК «Гранд»",
    "address": "Московская область, г. Химки, ул. Бутаково, д. 4, 3 вход, 3-й этаж",
    "phone": "+7 (901)334-52-80",
    "popup": {
      "content": "Московская область, г. Химки, ул. Бутаково, д. 4, 3 вход, 3-й этаж, +7(901)334-52-80",
      "position": "top"
    }
  }
]
},

{
  "city": "Воронеж",
  "coordinates": [39.200296, 51.660781],
  "id": "vrj",
  "markers":[
    {
      "coordinates": [39.155344, 51.662462],
      "color": "#f28109",
      "title": "ЭЛЬБА мебель",
      "subtitle": "магазин",
      "address": "ул. Пеше-Стрелецкая, д. 64",
      "phone": "7 (473) 200-63-98",
      "popup": {
        "content": "ул. Пеше-Стрелецкая, д. 64, 7(473) 200-63-98",
        "position": "top"
      }
    },
    {
      "coordinates": [39.181863, 51.717624],
      "color": "#f28109",
      "title": "ЭЛЬБА мебель",
      "subtitle": "ТЦ «Рынок Воронежский»",
      "address": "Московский проспект, д. 90/1, 4 этаж",
      "phone": "7 (473) 203-05-85",
      "popup": {
        "content": "Московский проспект, д. 90/1, 4 этаж, 7(473) 203-05-85",
        "position": "top"
      }
    },
    {
      "coordinates": [39.273563, 51.698856],
      "color": "#f28109",
      "title": "ЭЛЬБА мебель",
      "subtitle": "ТРЦ «Максимир»",
      "address": "Ленинский пр-кт., д. 174П, 4 этаж",
      "phone": "7 (473) 203-06-20",
      "popup": {
        "content": "Ленинский пр-кт., д. 174П, 4 этаж, 7(473) 203-06-20",
        "position": "top"
      }
    },
    {
      "coordinates": [39.199631, 51.682955],
      "color": "#f28109",
      "title": "ЭЛЬБА мебель",
      "subtitle": "МЦ «ЦДМ»",
      "address": "ул. Урицкого, д. 70, 2 этаж, 4 этаж",
      "phone": "7 (473) 203-09-40",
      "popup": {
        "content": "ул. Урицкого, д. 70, 2 этаж, 4 этаж, 7(473) 203-09-40",
        "position": "top"
      }
    },
    {
      "coordinates": [39.205250, 51.789081],
      "color": "#f28109",
      "title": "ЭЛЬБА мебель",
      "subtitle": "ТЦ «Сити-парк Град»",
      "address": "ул. Парковая, д. 3 секция 168, л.1Б блок 8, цоколь",
      "phone": "7 (473) 203-85-49",
      "popup": {
        "content": "ул. Парковая, д. 3 секция 168, л.1Б блок 8, цоколь, 7(473) 203-85-49",
        "position": "top"
      }
    },
    {
      "coordinates": [39.159445, 51.711060],
      "color": "#f28109",
      "title": "ЭЛЬБА мебель",
      "subtitle": "ТРК «Арена»",
      "address": "ул. Бульвар Победы, д. 23б, 4 этаж, цоколь",
      "phone": "7 (473) 203-01-85",
      "popup": {
        "content": "ул. Бульвар Победы, д. 23б, 4 этаж, цоколь, 7(473) 203-01-85",
        "position": "top"
      }
    }
  ]
},

{
  "city": "Красноярск",
  "coordinates": [92.852581, 56.010543],
  "id": "krj",
  "markers":[
    {
      "coordinates": [92.913630, 56.042130],
      "color": "#f28109",
      "title": "КОМАНДОР мебельный мегаполис",
      "subtitle": "МЦ «Командор»",
      "address": "​ул. 78 Добровольческой Бригады, 12",
      "phone": "7 (391)205-08-88",
      "popup": {
        "content": "​ул. 78 Добровольческой Бригады, 12, 7 (391)205-08-88",
        "position": "top"
      }
    },
    {
      "coordinates": [92.910262, 55.991752],
      "color": "#f28109",
      "title": "КОМАНДОР мебельный мегаполис",
      "subtitle": "МЦ «Атосфера дома»",
      "address": "ул. ​Академика Вавилова, 1 стр.39",
      "phone": "7 (391)205-08-88",
      "popup": {
        "content": "ул. ​Академика Вавилова, 1 стр.39, 7 (391)205-08-88",
        "position": "top"
      }
    }
  ]
},

{
  "city": "Екатеринбург",
  "coordinates": [60.597474, 56.838011],
  "id": "ekb",
  "markers":[
    {
      "coordinates": [60.625906, 56.816636],
      "color": "#f28109",
      "title": "Camelgroup, Cалон итальянской мебели",
      "subtitle": "ИЦ «ASTROOM»",
      "address": "ул. Цвиллинга,1, 2 этаж — галерея Б",
      "phone": "7 (902)270-95-92",
      "popup": {
        "content": "ул. Цвиллинга,1, 2 этаж — галерея Б, 7(902)270-95-92",
        "position": "top"
      }
    }
  ]
},

{
  "city": "Ставрополь",
  "coordinates": [41.969110, 45.043317],
  "id": "stw",
  "markers":[
    {
      "coordinates": [41.912454,45.050303],
      "color": "#f28109",
      "title": "Да Винчи",
      "subtitle": "",
      "address": "проспект Кулакова, 8К",
      "phone": "8 800 550-09-26, 8 (8652) 56-50-66",
      "popup": {
        "content": "проспект Кулакова, 8К, 8 800 550-09-26, 8 (8652) 56-50-66",
        "position": "top"
      }
    }
  ]
},

{
  "city": "Майкоп",
  "coordinates": [40.105852, 44.606683],
  "id": "mkp",
  "markers":[
    {
      "coordinates": [40.036682, 44.612099],
      "color": "#f28109",
      "title": "Сфера Мебели",
      "subtitle": "",
      "address": "х. Гавердовский, ул. Садовая,133.",
      "phone": "7 (918)420-63-27, 7 (918)429-00-54",
      "popup": {
        "content": "х. Гавердовский, ул. Садовая,133., 7(918)420-63-27, 7(918)429-00-54",
        "position": "top"
      }
    }
  ]
},

{
  "city": "Ростов-на-Дону",
  "coordinates": [39.720358, 47.222078],
  "id": "rnd",
  "markers":[
    {
      "coordinates": [39.844532, 47.284538],
      "color": "#f28109",
      "title": "ЭЛЬБА мебель",
      "subtitle": "г.Аксай, ТЦ «ХДМ-Юг»",
      "address": "Аксайский проспект, 21, 2 этаж",
      "phone": "8 (863) 209-83-89",
      "popup": {
        "content": "Аксайский проспект, 21, 2 этаж, 8 (863) 209-83-89",
        "position": "top"
      }
    },
    {
      "coordinates": [39.612767, 47.227580],
      "color": "#f28109",
      "title": "ЭЛЬБА мебель",
      "subtitle": "ТК «Мебель Град»",
      "address": "ул. Малиновского, 23А, 3 этаж",
      "phone": "8 (863) 209-84-40",
      "popup": {
        "content": "ул. Малиновского, 23А, 3 этаж, 8(863) 209-84-40",
        "position": "top"
      }
    },
    {
      "coordinates": [39.693543, 47.288377],
      "color": "#f28109",
      "title": "ЭЛЬБА мебель",
      "subtitle": "ТЦ «Интерио»",
      "address": "проспект Королёва, 1Д, 2 этаж, 3 этаж",
      "phone": "8 (863) 209-81-03",
      "popup": {
        "content": "проспект Королёва, 1Д, 2 этаж, 3 этаж, 8(863) 209-81-03",
        "position": "top"
      }
    }
  ]
},

{
  "city": "Сургут",
  "coordinates": [73.393032, 61.241778],
  "id": "sgt",
  "markers":[
    {
    "coordinates": [73.419847, 61.247786],
    "color": "#f28109",
    "title": "Мебель Италии",
    "subtitle": "магазин-салон",
    "address": "ул. Университетская 11",
    "phone": "7 (3462) 35-40-41",
    "popup": {
      "content": "ул. Университетская 11, 7(3462) 35-40-41",
      "position": "top"
    }
  }
  ]
}
]

