[
  {
    "city": "Челябинск",
    "coordinates": [61.402554, 55.159902],
    "id": "chl",
    "markers": [
      {
        "coordinates": [61.371041, 55.148123],
        "color": "#f28109",
        "title": "ЭРА",
        "subtitle": "ТВК Калибр",
        "address": "Ул. Худякова, 12 ТВК Калибр , этаж 2 , секция 42",
        "phone": "+7 932 308-15-30",
        "popup": {
          "content": "Ул. Худякова, 12 ТВК Калибр , этаж 2 , секция 42, +7 932 308-15-30",
          "position": "top"
        }
      },
      {
        "coordinates": [61.384424, 55.118848],
        "color": "#f28109",
        "title": "Эра",
        "subtitle": "ТВК Мега мебель",
        "address": "Ул. Дарвина 2, 2 этаж",
        "phone": "+7 (951) 261-96-96",
        "popup": {
          "content": "Ул. Дарвина 2, 2 этаж, +7 (951) 261-96-96",
          "position": "top"
        }
      },
      {
        "coordinates": [61.377758, 55.160281],
        "color": "#f28109",
        "title": "Интерьерный салон Диво",
        "subtitle": "Специализированный магазин",
        "address": "пр. Ленина, 66",
        "phone": "+7 (351) 701-16-66",
        "popup": {
          "content": "пр. Ленина, 66, +7 (351) 701-16-66",
          "position": "top"
        }
      },
      {
        "coordinates": [61.377758, 55.160281],
        "color": "#f28109",
        "title": "VogInteriors",
        "subtitle": "ТЦ Манхэттен",
        "address": "ул. Труда, 174, этаж 1",
        "phone": "8 (904)3038287",
        "popup": {
          "content": "ул. Труда, 174, этаж 1, 8 (904)3038287",
          "position": "top"
        }
      }
      ]
  },
  { "city": "Самара",
    "coordinates": [50.100202, 53.195878],
    "id": "sam",
    "markers": [
      {
        "coordinates": [50.248491, 53.197422],
        "color": "#f28109",
        "title": "Mebel Pro",
        "subtitle": "ТЦ ПОБЕДА",
        "address": "Ул.22 Партьсьезда секция 222",
        "phone": "8 (939)7007377",
        "popup": {
          "content": "Ул.22 Партьсьезда секция 222, 8 (939)7007377",
          "position": "top"
        }
      },
      {
        "coordinates": [50.178335, 53.206432],
        "color": "#f28109",
        "title": "Mebellend",
        "subtitle": "МЦ Мягкофф",
        "address": "ул.Революционная, д.70, сек. 130",
        "phone": "+7 9083922333",
        "popup": {
          "content": "ул.Революционная, д.70, сек. 130, +7 9083922333",
          "position": "top"
        }
      }
    ]
  }
]
